{ "slug": "amsterdam", "name": "Amsterdam", "coordinates": { "lat": 52.3702157, "lng": 4.8951679000000015 }, "sort_key": 1000 }
{ "slug": "athens", "name": "Athens", "coordinates": { "lat": 37.98391699999999, "lng": 23.7293599 }, "sort_key": 1000 }
{ "slug": "baltimore", "name": "Baltimore", "coordinates": { "lat": 39.2903848, "lng": -76.61218930000001 }, "sort_key": 1000 }
{ "slug": "bangalore", "name": "Bangalore", "coordinates": { "lat": 12.971598699999998, "lng": 77.59456270000001 }, "sort_key": 1000 }
{ "slug": "bangkok", "name": "Bangkok", "coordinates": { "lat": 13.727895600000002, "lng": 100.5241235 }, "sort_key": 1000 }
{ "slug": "barcelona", "name": "Barcelona", "coordinates": { "lat": 41.38506389999999, "lng": 2.1734035 }, "sort_key": 1000 }
{ "slug": "basel", "name": "Basel", "coordinates": { "lat": 47.567442199999995, "lng": 7.597550699999999 }, "sort_key": 1000 }
{ "slug": "beijing", "name": "Beijing", "coordinates": { "lat": 39.90403, "lng": 116.407526 }, "sort_key": 1000 }
{ "slug": "beirut", "name": "Beirut", "coordinates": { "lat": 33.888629, "lng": 35.495479 }, "sort_key": 1000 }
{ "slug": "berlin", "name": "Berlin", "coordinates": { "lat": 52.52000659999998, "lng": 13.404954000000002 }, "sort_key": 5, "featured": true }
{ "slug": "bogota", "name": "Bogota", "coordinates": { "lat": 4.598056000000001, "lng": -74.075833 }, "sort_key": 1000 }
{ "slug": "bologna", "name": "Bologna", "coordinates": { "lat": 44.494887, "lng": 11.342616299999998 }, "sort_key": 1000 }
{ "slug": "boston", "name": "Boston", "coordinates": { "lat": 42.3584308, "lng": -71.0597732 }, "sort_key": 1000 }
{ "slug": "brussels", "name": "Brussels", "coordinates": { "lat": 50.8503396, "lng": 4.3517103 }, "sort_key": 1000 }
{ "slug": "buenos-aires", "name": "Buenos Aires", "coordinates": { "lat": -34.603723200000005, "lng": -58.381593099999996 }, "sort_key": 1000 }
{ "slug": "cape-town", "name": "Cape Town", "coordinates": { "lat": -33.9248685, "lng": 18.4240553 }, "sort_key": 1000 }
{ "slug": "chicago", "name": "Chicago", "coordinates": { "lat": 41.8781136, "lng": -87.6297982 }, "sort_key": 1000 }
{ "slug": "cologne", "name": "Cologne", "coordinates": { "lat": 50.937531, "lng": 6.9602786 }, "sort_key": 1000 }
{ "slug": "copenhagen", "name": "Copenhagen", "coordinates": { "lat": 55.67609680000001, "lng": 12.568337099999999 }, "sort_key": 1000 }
{ "slug": "daegu", "name": "Daegu", "coordinates": { "lat": 35.8667, "lng": -128.6 }, "sort_key": 1000 }
{ "slug": "dallas", "name": "Dallas", "coordinates": { "lat": 32.78013990000001, "lng": -96.80045109999999 }, "sort_key": 1000 }
{ "slug": "denver", "name": "Denver", "coordinates": { "lat": 39.737567, "lng": -104.98471789999999 }, "sort_key": 1000 }
{ "slug": "dubai", "name": "Dubai", "coordinates": { "lat": 25.047664299999994, "lng": 55.1817407 }, "sort_key": 1000 }
{ "slug": "dublin", "name": "Dublin", "coordinates": { "lat": 53.3498053, "lng": -6.2603097000000005 }, "sort_key": 1000 }
{ "slug": "dusseldorf", "name": "Düsseldorf", "coordinates": { "lat": 51.227741099999996, "lng": 6.773455599999999 }, "sort_key": 1000 }
{ "slug": "east-hampton", "name": "East Hampton", "coordinates": { "lat": 40.963433500000015, "lng": -72.1848009 }, "sort_key": 1000 }
{ "slug": "florence", "name": "Florence", "coordinates": { "lat": 43.7710332, "lng": 11.248000599999997 }, "sort_key": 1000 }
{ "slug": "frankfurt", "name": "Frankfurt", "coordinates": { "lat": 50.1109221, "lng": 8.6821267 }, "sort_key": 1000 }
{ "slug": "geneva", "name": "Geneva", "coordinates": { "lat": 46.198392199999994, "lng": 6.142296099999999 }, "sort_key": 1000 }
{ "slug": "glasglow", "name": "Glasglow", "coordinates": { "lat": 55.864237, "lng": -4.251806000000001 }, "sort_key": 1000 }
{ "slug": "hamburg", "name": "Hamburg", "coordinates": { "lat": 53.551084599999996, "lng": 9.993681800000001 }, "sort_key": 1000 }
{ "slug": "helsinki", "name": "Helsinki", "coordinates": { "lat": 60.17332440000002, "lng": 24.941024800000005 }, "sort_key": 1000 }
{ "slug": "hong-kong", "name": "Hong Kong", "coordinates": { "lat": 22.396428, "lng": 114.109497 }, "sort_key": 8, "featured": true }
{ "slug": "houston", "name": "Houston", "coordinates": { "lat": 29.760192699999998, "lng": -95.3693896 }, "sort_key": 1000 }
{ "slug": "istanbul", "name": "Istanbul", "coordinates": { "lat": 41.00527, "lng": 28.97696 }, "sort_key": 1000 }
{ "slug": "jerusalem", "name": "Jerusalem", "coordinates": { "lat": 31.7833, "lng": 35.2167 }, "sort_key": 1000 }
{ "slug": "johannesburg", "name": "Johannesburg", "coordinates": { "lat": -26.2044, "lng": 28.0456 }, "sort_key": 1000 }
{ "slug": "kuala-lumpur", "name": "Kuala Lumpur", "coordinates": { "lat": 3.139003, "lng": 101.686855 }, "sort_key": 1000 }
{ "slug": "leipzig", "name": "Leipzig", "coordinates": { "lat": 51.3396955, "lng": 12.373074699999998 }, "sort_key": 1000 }
{ "slug": "lima", "name": "Lima", "coordinates": { "lat": -12.046373999999998, "lng": -77.0427934 }, "sort_key": 1000 }
{ "slug": "lisbon", "name": "Lisbon", "coordinates": { "lat": 38.7222524, "lng": -9.1393366 }, "sort_key": 1000 }
{ "slug": "london", "name": "London", "coordinates": { "lat": 51.5073509, "lng": -0.12775830000000002 }, "sort_key": 2, "featured": true }
{ "slug": "los-angeles", "name": "Los Angeles", "coordinates": { "lat": 34.052234199999994, "lng": -118.24368490000002 }, "sort_key": 3, "featured": true }
{ "slug": "madrid", "name": "Madrid", "coordinates": { "lat": 40.4167754, "lng": -3.7037902 }, "sort_key": 1000 }
{ "slug": "makati-city", "name": "Makati City", "coordinates": { "lat": 14.554728999999998, "lng": 121.02444519999999 }, "sort_key": 1000 }
{ "slug": "melbourne", "name": "Melbourne", "coordinates": { "lat": -37.814107, "lng": 144.96328000000003 }, "sort_key": 1000 }
{ "slug": "mexico-city", "name": "Mexico City", "coordinates": { "lat": 19.432607700000002, "lng": -99.13320799999998 }, "sort_key": 1000 }
{ "slug": "miami", "name": "Miami", "coordinates": { "lat": 25.7890972, "lng": -80.2040435 }, "sort_key": 6, "featured": true }
{ "slug": "milan", "name": "Milan", "coordinates": { "lat": 45.465421899999996, "lng": 9.185924300000002 }, "sort_key": 9, "featured": true }
{ "slug": "montreal", "name": "Montreal", "coordinates": { "lat": 45.5086699, "lng": -73.55399249999999 }, "sort_key": 1000 }
{ "slug": "moscow", "name": "Moscow", "coordinates": { "lat": 55.75, "lng": -37.6167 }, "sort_key": 1000 }
{ "slug": "mumbai", "name": "Mumbai", "coordinates": { "lat": 18.975, "lng": -72.8258 }, "sort_key": 1000 }
{ "slug": "munich", "name": "Munich", "coordinates": { "lat": 48.1351253, "lng": 11.581980600000001 }, "sort_key": 1000 }
{ "slug": "naples", "name": "Naples", "coordinates": { "lat": 26.142035799999995, "lng": -81.79481030000001 }, "sort_key": 1000 }
{ "slug": "napoli", "name": "Napoli", "coordinates": { "lat": 40.851774600000006, "lng": 14.2681244 }, "sort_key": 1000 }
{ "slug": "new-delhi", "name": "New Delhi", "coordinates": { "lat": 28.635308000000002, "lng": 77.22496 }, "sort_key": 1000, "featured": true }
{ "slug": "new-york", "name": "New York", "coordinates": { "lat": 40.7127837, "lng": -74.0059413 }, "sort_key": 1 }
{ "slug": "oslo", "name": "Oslo", "coordinates": { "lat": 59.913868799999996, "lng": 10.7522454 }, "sort_key": 1000 }
{ "slug": "palm-beach", "name": "Palm Beach", "coordinates": { "lat": 26.705620600000003, "lng": -80.03642969999999 }, "sort_key": 1000 }
{ "slug": "paris", "name": "Paris", "coordinates": { "lat": 48.856614, "lng": 2.3522219000000004 }, "sort_key": 4, "featured": true }
{ "slug": "philadelphia", "name": "Philadelphia", "coordinates": { "lat": 39.952335000000005, "lng": -75.16378900000002 }, "sort_key": 1000 }
{ "slug": "portland", "name": "Portland", "coordinates": { "lat": 45.52345149999999, "lng": -122.67620709999998 }, "sort_key": 1000 }
{ "slug": "providence", "name": "Providence", "coordinates": { "lat": 41.823989100000006, "lng": -71.4128343 }, "sort_key": 1000 }
{ "slug": "rio-de-janeiro", "name": "Rio de Janeiro", "coordinates": { "lat": -22.9082998, "lng": -43.1970773 }, "sort_key": 1000 }
{ "slug": "rome", "name": "Rome", "coordinates": { "lat": 41.8723889, "lng": 12.4801802 }, "sort_key": 1000 }
{ "slug": "salzburg", "name": "Salzburg", "coordinates": { "lat": 47.80948999999999, "lng": 13.05501 }, "sort_key": 1000 }
{ "slug": "san-francisco", "name": "San Francisco", "coordinates": { "lat": 37.7749295, "lng": -122.41941550000001 }, "sort_key": 7, "featured": true }
{ "slug": "san-juan", "name": "San Juan", "coordinates": { "lat": -31.527273200000003, "lng": -68.5214081 }, "sort_key": 1000 }
{ "slug": "santa-fe", "name": "Santa Fe", "coordinates": { "lat": 35.6869752, "lng": -105.937799 }, "sort_key": 1000 }
{ "slug": "santa-monica", "name": "Santa Monica", "coordinates": { "lat": 34.0194543, "lng": -118.4911912 }, "sort_key": 1000 }
{ "slug": "santiago", "name": "Santiago", "coordinates": { "lat": -33.4691199, "lng": -70.641997 }, "sort_key": 1000 }
{ "slug": "sao-paulo", "name": "São Paulo", "coordinates": { "lat": -23.5505199, "lng": -46.63330939999998 }, "sort_key": 10 }
{ "slug": "seattle", "name": "Seattle", "coordinates": { "lat": 47.6062095, "lng": -122.3320708 }, "sort_key": 1000 }
{ "slug": "seoul", "name": "Seoul", "coordinates": { "lat": 37.56653500000001, "lng": 126.9779692 }, "sort_key": 1000 }
{ "slug": "shanghai", "name": "Shanghai", "coordinates": { "lat": 31.230415999999998, "lng": 121.47370099999999 }, "sort_key": 1000 }
{ "slug": "singapore", "name": "Singapore", "coordinates": { "lat": 1.352083, "lng": 103.81983599999998 }, "sort_key": 1000 }
{ "slug": "st-moritz", "name": "St. Moritz", "coordinates": { "lat": 46.4950997, "lng": 9.836141900000001 }, "sort_key": 1000 }
{ "slug": "st-petersburg", "name": "St. Petersburg", "coordinates": { "lat": 27.773055999999997, "lng": -82.64000000000001 }, "sort_key": 1000 }
{ "slug": "stockholm", "name": "Stockholm", "coordinates": { "lat": 59.32932349999999, "lng": 18.0685808 }, "sort_key": 1000 }
{ "slug": "sydney", "name": "Sydney", "coordinates": { "lat": -33.8674869, "lng": 151.2069902 }, "sort_key": 1000 }
{ "slug": "taipei", "name": "Taipei", "coordinates": { "lat": 25.0465658, "lng": 121.54886690000001 }, "sort_key": 1000 }
{ "slug": "talinn", "name": "Talinn", "coordinates": { "lat": 59.4372, "lng": 24.7453 }, "sort_key": 1000 }
{ "slug": "tbilisi", "name": "Tbilisi", "coordinates": { "lat": 41.7167, "lng": 44.7833 }, "sort_key": 1000 }
{ "slug": "tel-aviv", "name": "Tel Aviv", "coordinates": { "lat": 32.0852999, "lng": 34.78176759999999 }, "sort_key": 1000 }
{ "slug": "tokyo", "name": "Tokyo", "coordinates": { "lat": 35.68948749999999, "lng": 139.6917064 }, "sort_key": 1000, "featured": true }
{ "slug": "toronto", "name": "Toronto", "coordinates": { "lat": 43.65322599999999, "lng": -79.3831843 }, "sort_key": 1000 }
{ "slug": "vancouver", "name": "Vancouver", "coordinates": { "lat": 49.26122600000001, "lng": -123.11392680000002 }, "sort_key": 1000 }
{ "slug": "venice", "name": "Venice", "coordinates": { "lat": 45.4408474, "lng": 12.315515100000002 }, "sort_key": 1000 }
{ "slug": "vienna", "name": "Vienna", "coordinates": { "lat": 48.20817430000001, "lng": 16.3738189 }, "sort_key": 1000 }
{ "slug": "washington", "name": "Washington", "coordinates": { "lat": 38.9071923, "lng": -77.0368707 }, "sort_key": 1000 }
{ "slug": "zurich", "name": "Zürich", "coordinates": { "lat": 47.36864980000001, "lng": 8.5391825 }, "sort_key": 1000 }
{ "slug": "lausanne", "name": "Lausanne", "coordinates": { "lat": 46.5533142, "lng": 6.652495 }, "sort_key": 1000 }],
